[
  {
    "name": "Symphony Community Fridge",
    "address": "70 St. Stephen Street",
    "coordinates": [42.34172876773847, -71.08751130412465]
  },
  {
    "name": "South End Community Fridge",
    "address": "549 Columbus Avenue",
    "coordinates": [42.34162565042275, -71.08093104441139]
  },
  {
    "name": "Fenway Community Fridge",
    "address": "506 Park Drive",
    "coordinates": [42.34764027869104, -71.10596961557569]
  },
  {
    "name": "Brookline Community Fridge",
    "address": "7 Station Street",
    "coordinates": [42.33276053567381, -71.11787951524394]
  },
  {
    "name": "Jamaica Plain Community Fridge",
    "address": "672 Center Street",
    "coordinates": [42.312542490672506, -71.11396118640887]
  },
  {
    "name": "Allston Community Fridge",
    "address": "404 Washington Street",
    "coordinates": [42.34893182207457, -71.15518114407914]
  },
  {
    "name": "Brighton Community Fridge",
    "address": "243 Faneuil Street",
    "coordinates": [42.353069339303566, -71.16011981524335]
  },
  {
    "name": "Cambridge Community Fridge",
    "address": "45 Mount Auburn Street",
    "coordinates": [42.37148871223761, -71.11633404592777]
  }
]